[
  {
    "id": 1,
    "name": "セガ秋葉原4号館",
    "address": "東京都千代田区外神田1-10-9",
    "latitude": 35.6989,
    "longitude": 139.7719,
    "description": "音ゲーと格ゲーが充実した秋葉原の人気ゲームセンター",
    "tags": ["音ゲー", "格ゲー"],
    "openingHours": "10:00-23:00"
  },
  {
    "id": 2,
    "name": "タイトーステーション 渋谷店",
    "address": "東京都渋谷区宇田川町23-3",
    "latitude": 35.6618,
    "longitude": 139.6978,
    "description": "渋谷駅近くの大型アミューズメント施設",
    "tags": ["クレーンゲーム", "音ゲー"],
    "openingHours": "10:00-24:00"
  },
  {
    "id": 3,
    "name": "ラウンドワン梅田店",
    "address": "大阪府大阪市北区小松原町4-16",
    "latitude": 34.7024,
    "longitude": 135.4959,
    "description": "ボウリングやカラオケも併設の総合アミューズメント",
    "tags": ["音ゲー", "クレーンゲーム", "メダルゲーム"],
    "openingHours": "24時間営業"
  },
  {
    "id": 4,
    "name": "アドアーズ新宿東口店",
    "address": "東京都新宿区新宿3-22-12",
    "latitude": 35.6907,
    "longitude": 139.7040,
    "description": "新宿東口の老舗ゲームセンター",
    "tags": ["格ゲー", "レトロゲーム"],
    "openingHours": "10:00-23:50"
  },
  {
    "id": 5,
    "name": "ナムコ博多店",
    "address": "福岡県福岡市博多区博多駅中央街1-1",
    "latitude": 33.5904,
    "longitude": 130.4207,
    "description": "博多駅直結のアクセス抜群なゲームセンター",
    "tags": ["プライズ", "クレーンゲーム"],
    "openingHours": "10:00-21:00"
  },
  {
    "id": 6,
    "name": "ゲームパニック難波店",
    "address": "大阪府大阪市中央区難波3-7-26",
    "latitude": 34.6656,
    "longitude": 135.5008,
    "description": "難波の繁華街にある音ゲー充実店",
    "tags": ["音ゲー", "格ゲー"],
    "openingHours": "10:00-24:00"
  },
  {
    "id": 7,
    "name": "タイトーステーション 札幌狸小路店",
    "address": "北海道札幌市中央区南3条西3-12-1",
    "latitude": 43.0548,
    "longitude": 141.3527,
    "description": "札幌の中心部、狸小路商店街のゲームセンター",
    "tags": ["クレーンゲーム", "プライズ", "音ゲー"],
    "openingHours": "10:00-23:00"
  },
  {
    "id": 8,
    "name": "セガワールド名古屋大須",
    "address": "愛知県名古屋市中区大須3-30-60",
    "latitude": 35.1594,
    "longitude": 136.9066,
    "description": "大須商店街の音ゲー・格ゲーの聖地",
    "tags": ["音ゲー", "格ゲー", "レトロゲーム"],
    "openingHours": "10:00-24:00"
  }
]

